City_ID,City,Lat,Lng,Max Temp,Humidity,Cloudiness,Wind Speed,Country,Date
0,barrow,71.2906,-156.7887,-0.99,86,75,9.77,US,1670274686
1,carnarvon,-24.8667,113.6333,20.64,75,67,7.15,AU,1670274686
2,mataura,-46.1927,168.8643,10.27,99,100,0.95,NZ,1670274687
3,bredasdorp,-34.5322,20.0403,15.33,66,100,0.6,ZA,1670274687
4,tahe,52.3333,124.7333,-21.99,98,93,1.25,CN,1670274688
5,labuhan,-6.8844,112.2051,26.15,82,100,1.44,ID,1670274688
6,guerrero negro,27.9769,-114.0611,20.09,65,8,7.51,MX,1670274689
7,san policarpo,12.1791,125.5072,26.48,76,100,4.07,PH,1670274689
8,busselton,-33.65,115.3333,13.3,74,0,5.33,AU,1670274690
9,hambantota,6.1241,81.1185,24.95,83,100,2.12,LK,1670274690
10,ushuaia,-54.8,-68.3,8.81,46,75,11.32,AR,1670274529
11,save,8.0425,2.486,29.67,35,36,1.05,BJ,1670274691
12,kodiak,57.79,-152.4072,3.73,93,100,5.14,US,1670274691
13,butaritari,3.0707,172.7902,27.18,80,100,7.04,KI,1670274692
14,coihaique,-45.5752,-72.0662,14.97,55,75,4.12,CL,1670274692
15,punta arenas,-53.15,-70.9167,10.06,40,40,8.75,CL,1670274665
16,comodoro rivadavia,-45.8667,-67.5,23.92,31,0,11.83,AR,1670274498
17,albany,42.6001,-73.9662,5.84,46,100,3.04,US,1670274693
18,tiarei,-17.5333,-149.3333,29.01,79,35,6.75,PF,1670274473
19,pisco,-13.7,-76.2167,21.03,78,0,3.6,PE,1670274694
20,mar del plata,-38.0023,-57.5575,32.68,78,0,8.94,AR,1670274537
21,bethel,41.3712,-73.414,7.74,47,0,1.54,US,1670274407
22,new norfolk,-42.7826,147.0587,12.18,65,90,0.45,AU,1670274554
23,santarem,-2.4431,-54.7083,29.07,70,20,4.63,BR,1670274695
24,jamestown,42.097,-79.2353,7.8,26,0,4.63,US,1670274695
25,ancud,-41.8697,-73.8203,13.63,97,99,7.09,CL,1670274696
26,bet dagan,32.0014,34.8303,18.05,79,20,1.54,IL,1670274696
27,aklavik,68.2191,-135.0107,-25.47,84,100,10.01,CA,1670274571
28,thompson,55.7435,-97.8558,-24.69,89,62,3.47,CA,1670274697
29,barahona,18.2085,-71.1008,29.9,70,20,5.14,DO,1670274421
30,bambous virieux,-20.3428,57.7575,24.14,88,40,4.63,MU,1670274697
31,mwene-ditu,-7.0,23.45,16.16,99,95,1.41,CD,1670274698
32,lebu,-37.6167,-73.65,17.32,69,2,2.79,CL,1670274637
33,constitucion,-35.3333,-72.4167,18.32,62,7,7.7,CL,1670274699
34,port hardy,50.6996,-127.4199,3.61,82,78,2.4,CA,1670274699
35,atuona,-9.8,-139.0333,25.31,75,92,7.13,PF,1670274699
36,abu dhabi,24.4667,54.3667,24.01,82,0,1.03,AE,1670274700
37,dunedin,-45.8742,170.5036,9.89,90,100,4.02,NZ,1670274700
38,fort morgan,40.2503,-103.8,12.36,28,0,7.2,US,1670274697
39,clyde river,70.4692,-68.5914,-9.87,92,100,0.0,CA,1670274701
40,airai,-8.9266,125.4092,14.69,71,83,0.73,TL,1670274600
41,kharan,28.5833,65.4167,13.86,29,0,1.96,PK,1670274702
42,hermanus,-34.4187,19.2345,13.78,66,98,1.43,ZA,1670274702
43,bluff,-46.6,168.3333,10.45,71,76,3.83,NZ,1670274703
44,yar-sale,66.8333,70.8333,-17.61,98,15,2.52,RU,1670274703
45,varzea alegre,-5.35,-40.3833,32.08,28,6,3.68,BR,1670274704
46,cape town,-33.9258,18.4232,17.97,67,86,2.68,ZA,1670274600
47,tiksi,71.6872,128.8694,-24.98,97,100,5.4,RU,1670274704
48,mogadishu,2.0371,45.3438,26.87,78,17,7.05,SO,1670274705
49,victoria,22.2855,114.1577,16.25,78,66,5.36,HK,1670274705
50,tasiilaq,65.6145,-37.6368,-2.91,63,33,3.12,GL,1670274420
51,kapaa,22.0752,-159.319,26.22,81,100,5.66,US,1670274706
52,hasaki,35.7333,140.8333,5.16,86,100,11.6,JP,1670274706
53,puerto ayora,-0.7393,-90.3518,24.98,88,55,3.13,EC,1670274707
54,chuy,-33.6971,-53.4616,22.72,66,0,4.36,UY,1670274707
55,makaryev,57.8797,43.8069,-11.9,92,100,2.73,RU,1670274708
56,pevek,69.7008,170.3133,-29.73,82,23,2.14,RU,1670274708
57,hilo,19.7297,-155.09,27.93,76,100,3.58,US,1670274708
58,andenes,69.3143,16.1194,3.29,87,75,13.38,NO,1670274594
59,san quintin,30.4833,-115.95,18.43,70,0,8.94,MX,1670274709
60,villazon,-22.0866,-65.5942,16.16,32,78,9.4,BO,1670274710
61,erzin,36.9559,36.2,13.94,61,25,1.32,TR,1670274710
62,cherskiy,68.75,161.3,-26.54,90,100,2.87,RU,1670274711
63,dikson,73.5069,80.5464,-4.72,96,100,5.93,RU,1670274711
64,saint-pierre,-21.3393,55.4781,24.82,69,0,5.66,RE,1670274642
65,mitsamiouli,-11.3847,43.2844,26.52,80,16,5.2,KM,1670274712
66,puerto escondido,15.85,-97.0667,30.46,58,0,0.0,MX,1670274712
67,rikitea,-23.1203,-134.9692,24.19,81,98,6.24,PF,1670274713
68,nyurba,63.2842,118.3319,-21.83,98,100,1.91,RU,1670274713
69,wladyslawowo,54.7909,18.4009,1.38,87,95,2.77,PL,1670274714
70,arraial do cabo,-22.9661,-42.0278,24.92,73,40,7.72,BR,1670274537
71,umred,20.85,79.3333,20.16,55,7,2.83,IN,1670274714
72,kanniyakumari,8.0833,77.5667,25.67,80,92,7.51,IN,1670274715
73,boa vista,2.8197,-60.6733,29.99,62,20,3.6,BR,1670274276
74,skjervoy,70.0311,20.9714,0.0,100,100,4.37,NO,1670274716
75,lompoc,34.6391,-120.4579,18.07,63,0,5.14,US,1670274716
76,tilichiki,60.4667,166.1,-16.03,88,85,3.1,RU,1670274417
77,san patricio,28.017,-97.5169,28.05,58,68,6.31,US,1670274709
78,camacha,33.0833,-16.3333,15.68,77,20,1.03,PT,1670274626
79,codrington,-38.2667,141.9667,13.3,69,11,5.4,AU,1670274717
80,champerico,14.3,-91.9167,33.3,72,4,2.56,GT,1670274718
81,upernavik,72.7868,-56.1549,-3.39,86,30,4.79,GL,1670274532
82,ribeira grande,38.5167,-28.7,17.22,67,40,7.2,PT,1670274718
83,hobart,-42.8794,147.3294,12.37,65,75,6.17,AU,1670274544
84,payo,-3.7508,103.6372,22.15,98,100,0.62,ID,1670274719
85,monrovia,6.3005,-10.7969,26.07,82,100,1.41,LR,1670274452
86,khatanga,71.9667,102.5,-33.19,100,15,2.14,RU,1670274720
87,bandrele,-12.9067,45.1914,26.86,83,75,3.6,YT,1670274721
88,vaini,-21.2,-175.2,25.68,83,87,8.72,TO,1670274721
89,antofagasta,-23.65,-70.4,19.6,67,4,3.6,CL,1670274721
90,troitsko-pechorsk,62.7084,56.1964,-17.77,99,98,2.05,RU,1670274722
91,beira,-19.8436,34.8389,26.4,83,10,5.51,MZ,1670274722
92,slantsy,59.1182,28.0914,-5.12,90,99,3.01,RU,1670274723
93,alofi,-19.0595,-169.9187,26.94,89,75,4.63,NU,1670274723
94,muta,46.6114,15.1661,5.3,99,100,0.93,SI,1670274724
95,soe,-9.8607,124.284,18.34,77,98,1.3,ID,1670274725
96,resistencia,-27.4606,-58.9839,35.61,36,0,4.67,AR,1670274725
97,eyl,7.9803,49.8164,25.4,72,100,7.41,SO,1670274726
98,mount gambier,-37.8333,140.7667,11.97,69,22,3.07,AU,1670274621
99,mufulira,-12.5498,28.2407,17.1,90,100,1.66,ZM,1670274727
100,bambanglipuro,-7.95,110.2833,24.18,93,100,1.72,ID,1670274727
101,nelson bay,-32.7167,152.15,20.61,85,51,3.58,AU,1670274727
102,pangnirtung,66.1451,-65.7125,-5.46,97,100,1.15,CA,1670274695
103,ngunguru,-35.6167,174.5,17.09,75,100,2.02,NZ,1670274728
104,ambilobe,-13.2,49.05,24.16,84,25,0.54,MG,1670274729
105,hammerfest,70.6634,23.6821,2.25,93,75,5.14,NO,1670274729
106,hithadhoo,-0.6,73.0833,27.33,76,100,3.8,MV,1670274449
107,odweyne,9.4092,45.064,19.13,56,9,2.42,SO,1670274730
108,mukhen,48.1,136.1,-15.24,82,52,4.26,RU,1670274730
109,kapit,2.0167,112.9333,22.58,99,99,0.56,MY,1670274731
110,the valley,18.217,-63.0578,27.12,68,3,6.77,AI,1670274731
111,sayla,22.55,71.4667,19.38,35,0,4.16,IN,1670274732
112,kotma,23.2,81.9667,12.3,56,0,1.38,IN,1670274732
113,norman wells,65.282,-126.8329,-30.94,93,20,4.58,CA,1670274733
114,dudinka,69.4058,86.1778,-3.54,95,100,7.36,RU,1670274733
115,tuatapere,-46.1333,167.6833,8.93,87,98,2.14,NZ,1670274719
116,saldanha,-33.0117,17.9442,16.45,77,97,6.37,ZA,1670274734
117,hobyo,5.3505,48.5268,26.67,78,100,7.39,SO,1670274734
118,cochrane,51.1834,-114.4687,-8.05,73,100,2.06,CA,1670274302
119,lebanon,36.2081,-86.2911,11.03,94,100,2.06,US,1670274730
120,yei,4.095,30.6779,22.11,71,78,0.79,SS,1670274735
121,avarua,-21.2078,-159.775,24.03,88,75,3.09,CK,1670274735
122,bereda,43.2686,-7.5406,9.67,100,100,0.47,ES,1670274736
123,sokoni,-6.4333,39.55,26.76,78,97,4.53,TZ,1670274736
124,kargil,34.5667,76.1,-7.33,49,100,0.96,IN,1670274737
125,dom pedro,-4.4833,-44.45,25.73,80,49,1.79,BR,1670274737
126,khandbari,27.3747,87.2039,12.24,63,0,1.58,NP,1670274738
127,san joaquin,37.9333,-121.3011,17.07,66,0,3.09,US,1670274738
128,cayenne,4.9333,-52.3333,27.02,83,75,1.54,GF,1670274739
129,gedo,9.0167,37.45,13.81,47,96,1.0,ET,1670274739
130,sovetskiy,61.3614,63.5842,-17.31,100,95,2.03,RU,1670274739
131,torbay,47.6666,-52.7314,4.59,95,100,0.51,CA,1670274740
132,sabang,5.8933,95.3214,26.54,78,90,2.65,ID,1670274740
133,castro,-24.7911,-50.0119,22.16,86,67,2.01,BR,1670274741
134,hirara,24.8,125.2833,21.72,78,100,14.57,JP,1670274741
135,dingle,10.9995,122.6711,23.04,93,35,3.4,PH,1670274742
136,port lincoln,-34.7333,135.8667,15.54,68,100,6.37,AU,1670274742
137,makakilo city,21.3469,-158.0858,27.18,61,40,3.09,US,1670274743
138,valer,60.6785,11.8331,-8.97,92,100,1.6,NO,1670274743
139,iquitos,-3.7481,-73.2472,31.02,58,40,2.06,PE,1670274744
140,sitka,57.0531,-135.33,2.94,75,100,3.6,US,1670274571
141,saint george,37.1041,-113.5841,15.24,55,20,0.0,US,1670274621
142,shaowu,27.3409,117.4831,7.48,95,98,0.42,CN,1670274744
143,cockburn town,21.4612,-71.1419,26.28,62,37,9.17,TC,1670274745
144,santa ana,33.7456,-117.8678,19.14,61,100,1.79,US,1670273983
145,thinadhoo,0.5333,72.9333,27.2,76,100,3.1,MV,1670274558
146,nikolskoye,59.7035,30.7861,-5.05,93,100,3.11,RU,1670274746
147,vila franca do campo,37.7167,-25.4333,17.33,83,70,5.76,PT,1670274726
148,qaanaaq,77.484,-69.3632,0.58,82,100,6.7,GL,1670274746
149,energetik,51.7445,58.7934,-15.28,95,95,4.47,RU,1670274747
150,pacific grove,36.6177,-121.9166,15.24,79,0,4.02,US,1670274747
151,tongren,27.7172,109.1853,3.17,87,11,0.88,CN,1670274748
152,goderich,43.7501,-81.7165,3.84,55,100,9.43,CA,1670274748
153,marsh harbour,26.5412,-77.0636,23.91,71,31,5.09,BS,1670274749
154,harper,4.375,-7.7169,25.78,85,67,2.36,LR,1670274749
155,benemerito de las americas,16.5167,-90.6439,26.28,68,48,1.75,MX,1670274749
156,mahebourg,-20.4081,57.7,24.16,88,40,4.63,MU,1670274750
157,ponta do sol,32.6667,-17.1,18.73,77,99,1.31,PT,1670274750
158,turukhansk,65.8167,87.9833,-3.8,95,100,6.23,RU,1670274751
159,furano,43.2818,142.4743,-13.02,95,79,1.63,JP,1670274751
160,san rafael del sur,11.8485,-86.4384,28.49,56,1,4.4,NI,1670274751
161,kavieng,-2.5744,150.7967,27.34,78,99,2.17,PG,1670274752
162,pyu,18.4833,96.4333,21.09,82,88,2.44,MM,1670274752
163,chabahar,25.2919,60.643,24.19,63,1,2.45,IR,1670274753
164,yellowknife,62.456,-114.3525,-30.25,67,65,4.02,CA,1670274748
165,panambi,-28.2925,-53.5017,28.33,57,21,2.97,BR,1670274600
166,dormidontovka,47.7702,134.9076,-16.85,87,44,4.1,RU,1670274754
167,severo-kurilsk,50.6789,156.125,-4.83,75,100,10.91,RU,1670274754
168,warrenton,-28.114,24.8475,18.64,14,56,2.91,ZA,1670274755
169,trairi,-3.2778,-39.2689,26.59,75,41,6.07,BR,1670274520
170,east london,-33.0153,27.9116,16.01,85,5,4.34,ZA,1670274575
171,batagay-alyta,67.8006,130.4114,-26.26,99,100,1.08,RU,1670274756
172,hamburg,53.55,10.0,3.38,98,100,1.03,DE,1670274652
173,barcelona,41.3888,2.159,12.52,80,75,3.09,ES,1670274735
174,sterlibashevo,53.4376,55.2578,-20.77,100,94,0.75,RU,1670274756
175,xichang,27.8964,102.2634,4.91,80,0,0.61,CN,1670274757
176,nemuro,43.3236,145.575,-1.89,54,0,5.66,JP,1670274757
177,general pico,-35.6566,-63.7568,39.67,12,67,7.93,AR,1670274758
178,vao,-22.6667,167.4833,25.16,87,100,4.33,NC,1670274758
179,fianarantsoa,-21.4333,47.0833,17.09,96,100,1.33,MG,1670274495
180,pocone,-16.2567,-56.6228,29.55,54,100,1.22,BR,1670274759
181,geraldton,-28.7667,114.6,20.23,83,100,6.17,AU,1670274475
182,ust-kuyga,70.0167,135.6,-32.53,100,100,1.53,RU,1670274759
183,tondano,1.3038,124.9112,20.05,95,100,0.5,ID,1670274760
184,maloy,61.9353,5.1136,3.74,22,98,8.9,NO,1670274760
185,sola,-13.8833,167.55,29.37,79,75,0.0,VU,1670274761
186,puerto del rosario,28.5004,-13.8627,20.86,73,20,0.51,ES,1670274761
187,poum,-20.2333,164.0167,26.47,85,100,6.62,NC,1670274762
188,bilma,18.6853,12.9164,23.74,19,4,2.43,NE,1670274762
189,pailon,-17.65,-62.75,37.82,18,19,3.89,BO,1670274763
190,jawhar,2.7809,45.5005,24.86,84,33,4.79,SO,1670274763
191,faanui,-16.4833,-151.75,26.45,77,68,7.45,PF,1670274763
192,tarakan,3.3,117.6333,25.8,83,97,1.19,ID,1670274764
193,omsukchan,62.5333,155.8,-30.86,100,98,1.87,RU,1670274764
194,san carlos,9.6612,-68.5827,29.01,51,46,2.14,VE,1670274765
195,saint-donat-de-montcalm,46.3187,-74.2219,-0.65,74,100,4.82,CA,1670274765
196,provideniya,64.3833,-173.3,1.06,75,100,12.07,RU,1670274765
197,neiafu,-18.65,-173.9833,29.38,74,40,3.6,TO,1670274713
198,saskylakh,71.9167,114.0833,-24.58,92,100,8.19,RU,1670274766
199,port blair,11.6667,92.75,26.99,83,100,9.28,IN,1670274767
200,paris,48.8534,2.3488,3.76,91,100,2.57,FR,1670274599
201,andapa,-14.65,49.65,19.99,97,72,0.75,MG,1670274767
202,chapais,49.7834,-74.8492,-5.12,85,99,3.82,CA,1670274470
203,riyadh,24.6877,46.7219,21.08,38,79,5.36,SA,1670274768
204,severnoye,56.3491,78.3619,-25.08,98,25,1.33,RU,1670274768
205,kaitangata,-46.2817,169.8464,8.3,92,100,2.6,NZ,1670274769
206,kaeo,-35.1,173.7833,18.01,78,100,2.71,NZ,1670274769
207,gumdag,39.2061,54.5906,-2.92,45,1,6.0,TM,1670274770
208,sungaipenuh,-2.0833,101.3833,17.77,95,100,0.85,ID,1670274770
209,duluth,46.7833,-92.1066,-3.73,64,100,7.2,US,1670274634
210,grafton,42.207,-71.6856,7.5,65,0,4.12,US,1670274771
211,penzance,50.1186,-5.5371,7.38,78,100,9.29,GB,1670274711
212,lynn haven,30.2455,-85.6483,24.46,77,100,3.09,US,1670274733
213,nakambala,-15.8324,27.7799,24.6,39,32,1.68,ZM,1670274772
214,radomsko,51.0671,19.4448,1.4,88,100,2.3,PL,1670274772
215,zaozerne,45.1582,33.2787,4.0,76,100,8.09,UA,1670274773
216,eydhafushi,5.1033,73.0708,25.86,84,100,4.91,MV,1670274773
217,souillac,-20.5167,57.5167,24.21,88,40,4.63,MU,1670274774
218,ketchikan,55.3422,-131.6461,1.99,86,40,1.54,US,1670274652
219,akyab,20.15,92.9,22.66,83,25,3.03,MM,1670274774
220,hermiston,45.8404,-119.2895,0.1,88,100,0.0,US,1670274775
221,brae,60.3964,-1.353,6.02,68,100,9.3,GB,1670274775
222,bulgan,48.8125,103.5347,-21.36,80,1,1.84,MN,1670274776
223,leningradskiy,69.3833,178.4167,-26.68,91,4,2.26,RU,1670274776
224,vanimo,-2.6741,141.3028,25.25,89,100,1.71,PG,1670274777
225,lensk,60.7253,114.9278,-11.77,94,100,5.5,RU,1670274777
226,pacifica,37.6138,-122.4869,16.62,75,75,6.17,US,1670274552
227,san angelo,31.4638,-100.437,23.54,59,0,5.36,US,1670274576
228,narasimharajapura,13.6167,75.5167,19.08,78,86,1.21,IN,1670274778
229,pangai,-19.8,-174.35,26.3,75,80,1.09,TO,1670274778
230,georgetown,5.4112,100.3354,27.35,86,20,0.0,MY,1670274751
231,margate,51.3813,1.3862,7.61,86,100,2.68,GB,1670274779
232,nome,64.5011,-165.4064,-0.96,86,100,7.2,US,1670274779
233,mehran,33.1222,46.1646,15.77,58,2,0.92,IR,1670274780
234,saint-cyr-sur-loire,47.4,0.6667,5.14,87,100,2.57,FR,1670274780
235,pangody,65.85,74.4859,-15.24,96,45,3.84,RU,1670274781
236,brigantine,39.4101,-74.3646,8.35,66,0,2.06,US,1670274781
237,balakhninskiy,58.0106,114.2769,-13.9,93,100,7.43,RU,1670274781
238,saint-philippe,-21.3585,55.7679,24.77,78,100,4.37,RE,1670274782
239,bijie,27.3125,105.2942,2.02,87,100,2.0,CN,1670274782
240,balbalan,17.4414,121.2019,18.36,96,100,0.89,PH,1670274783
241,piacabucu,-10.4056,-36.4344,24.32,87,20,4.82,BR,1670274783
242,palmer,42.1584,-72.3287,7.36,54,75,3.6,US,1670274496
243,marly,50.3456,3.5496,4.84,95,100,0.86,FR,1670274784
244,baherden,38.4362,57.4316,-0.37,56,9,2.52,TM,1670274784
245,port alfred,-33.5906,26.891,15.1,94,0,0.89,ZA,1670274785
246,fairbanks,64.8378,-147.7164,-6.71,90,100,0.0,US,1670274359
247,sao filipe,14.8961,-24.4956,22.58,68,34,3.31,CV,1670274786
248,luganville,-15.5333,167.1667,28.32,68,85,2.16,VU,1670274786
249,coldstream,55.6511,-2.2529,3.99,95,100,2.38,GB,1670274786
250,solnechnyy,50.7214,136.6319,-19.87,90,75,2.35,RU,1670274519
251,humberto de campos,-2.5983,-43.4611,26.8,75,28,4.89,BR,1670274787
252,baruun-urt,46.6806,113.2792,-16.49,73,2,6.42,MN,1670274788
253,kruisfontein,-34.0033,24.7314,14.94,90,1,3.47,ZA,1670274788
254,sorland,67.667,12.6934,3.92,83,100,18.45,NO,1670274646
255,vikhorevka,56.1201,101.1636,-12.23,86,100,8.07,RU,1670274789
256,longyearbyen,78.2186,15.6401,-13.09,66,75,11.83,SJ,1670274789
257,northam,51.0333,-4.2167,7.44,86,100,6.44,GB,1670274790
258,taltal,-25.4,-70.4833,20.27,67,23,2.66,CL,1670274790
259,cabedelo,-6.9811,-34.8339,26.37,74,18,5.23,BR,1670274569
260,bam,29.106,58.357,10.42,45,14,0.74,IR,1670274791
261,chokurdakh,70.6333,147.9167,-37.29,99,40,3.44,RU,1670274492
262,grand gaube,-20.0064,57.6608,24.22,78,17,2.24,MU,1670274685
263,rio grande,-32.035,-52.0986,27.06,77,0,5.19,BR,1670274792
264,bolshaya sosnova,57.6713,54.6029,-19.12,100,78,1.07,RU,1670274792
265,sulangan,11.1373,123.7228,26.91,77,44,5.6,PH,1670274793
266,linxia,35.6003,103.2064,-3.03,55,90,1.14,CN,1670274793
267,marsabit,2.3284,37.9899,20.14,62,47,5.01,KE,1670274794
268,chilca,-12.5211,-76.7372,20.37,76,34,3.55,PE,1670274794
269,samarai,-10.6167,150.6667,27.33,74,82,2.44,PG,1670274593
270,yulara,-25.2406,130.9889,27.06,17,9,3.48,AU,1670274795
271,stavern,59.0,10.0333,-5.46,92,11,2.91,NO,1670274796
272,iqaluit,63.7506,-68.5145,-16.46,96,100,0.93,CA,1670274796
273,zhangjiakou,40.81,114.8794,-9.48,36,0,2.24,CN,1670274796
274,moissala,8.3404,17.7663,26.91,27,36,2.39,TD,1670274552
275,teofilo otoni,-17.8575,-41.5053,21.34,89,100,2.02,BR,1670274797
276,kavaratti,10.5669,72.642,27.33,74,50,1.02,IN,1670274798
277,klaksvik,62.2266,-6.589,4.51,65,90,11.8,FO,1670274798
278,wahiawa,21.5028,-158.0236,26.18,61,40,0.0,US,1670274799
279,lilongwe,-13.9669,33.7873,22.75,67,79,0.49,MW,1670274799
280,oksfjord,70.2396,22.3479,3.1,99,100,2.56,NO,1670274523
281,tuktoyaktuk,69.4541,-133.0374,-26.11,78,100,9.88,CA,1670274800
282,sibolga,1.7427,98.7792,23.49,90,100,1.16,ID,1670274800
283,esperance,-33.8667,121.9,15.74,83,100,1.95,AU,1670274801
284,nanakuli,21.3906,-158.1547,27.97,50,40,0.0,US,1670274801
285,abrau-dyurso,44.69,37.59,-2.3,77,89,4.65,RU,1670274802
286,bang krathum,16.5783,100.3003,23.14,86,73,1.05,TH,1670274555
287,ahipara,-35.1667,173.1667,19.39,69,100,2.72,NZ,1670274537
288,vestmannaeyjar,63.4427,-20.2734,4.81,68,38,1.88,IS,1670274574
289,chateauroux,46.8167,1.7,2.0,93,0,2.06,FR,1670274803
290,mazagao,-0.115,-51.2894,27.03,82,100,1.43,BR,1670274803
291,shimoda,34.6667,138.95,7.84,90,100,6.26,JP,1670274804
292,sharan,54.8167,54.0,-22.64,100,99,0.58,RU,1670274804
293,inirida,3.8653,-67.9239,26.12,91,88,1.37,CO,1670274805
294,flinders,-34.5833,150.8552,19.54,79,47,3.13,AU,1670274551
295,alta floresta,-9.8756,-56.0861,21.71,99,100,1.59,BR,1670274805
296,chimoio,-19.1164,33.4833,20.38,94,0,1.53,MZ,1670274806
297,huejotzingo,19.15,-98.4,22.79,27,0,3.6,MX,1670274806
298,benton harbor,42.1167,-86.4542,6.14,58,100,3.09,US,1670274729
299,vulcanesti,45.6842,28.4028,2.74,78,100,4.49,MD,1670274807
300,ostrovnoy,68.0531,39.5131,-6.6,89,33,10.13,RU,1670274582
301,salamiyah,35.0113,37.0532,12.1,67,1,0.28,SY,1670274808
302,komsomolskiy,40.4272,71.7189,-0.6,86,75,4.12,UZ,1670274808
303,camargo,27.6667,-105.1667,28.33,22,62,4.9,MX,1670274808
304,fez,34.0372,-4.9998,17.14,59,40,6.17,MA,1670274809
305,deputatskiy,69.3,139.9,-31.01,96,100,1.54,RU,1670274809
306,havoysund,70.9963,24.6622,4.13,77,100,9.76,NO,1670274810
307,nambucca heads,-30.65,153.0,24.0,49,15,1.83,AU,1670274810
308,bunol,39.4167,-0.7833,12.72,81,100,0.94,ES,1670274811
309,natal,-5.795,-35.2094,27.36,74,75,6.17,BR,1670274284
310,ust-koksa,50.2696,85.6108,-18.97,96,78,0.6,RU,1670274811
311,vostok,46.4856,135.8833,-21.84,98,42,2.62,RU,1670274812
312,manokwari,-0.8667,134.0833,25.83,80,100,2.56,ID,1670274570
313,am timan,11.0297,20.2827,25.7,21,35,2.74,TD,1670274812
314,oranjestad,12.524,-70.027,28.28,69,52,1.34,AW,1670274813
315,lagos,6.5833,3.75,26.43,86,62,1.63,NG,1670274427
316,nikki,9.9401,3.2108,26.15,23,68,2.31,BJ,1670274813
317,isangel,-19.55,169.2667,30.06,84,20,1.54,VU,1670274814
318,karratha,-20.7377,116.8463,26.87,44,2,5.52,AU,1670274814
319,hailar,49.2,119.7,-15.98,88,93,7.55,CN,1670274586
320,vardo,70.3705,31.1107,-2.01,80,100,3.6,NO,1670274815
321,corinto,37.9407,22.9573,13.27,78,79,0.81,GR,1670274816
322,asyut,27.181,31.1837,16.2,54,0,4.37,EG,1670274816
323,luderitz,-26.6481,15.1594,16.32,68,3,9.27,NA,1670274647
324,lata,40.1629,-8.3327,12.82,92,100,1.45,PT,1670274669
325,marcavelica,-4.8778,-80.7053,30.64,34,3,8.11,PE,1670274817
326,mitu,1.1983,-70.1733,27.42,75,95,0.86,CO,1670274686
327,farafangana,-22.8167,47.8333,23.59,88,62,3.62,MG,1670274818
328,leirvik,59.7798,5.5005,2.57,77,100,3.85,NO,1670274818
329,hasilpur,29.7122,72.5553,14.93,28,1,1.19,PK,1670274819
330,alice springs,-23.7,133.8833,18.75,39,1,2.57,AU,1670274819
331,zhangye,38.9342,100.4517,-7.57,76,91,0.73,CN,1670274820
332,bathsheba,13.2167,-59.5167,27.34,79,40,2.06,BB,1670274820
333,svetlyy,54.675,20.1347,-0.97,91,100,3.46,RU,1670274821
334,calama,-22.4667,-68.9333,23.27,10,0,10.8,CL,1670274821
335,bardstown,37.8092,-85.4669,8.34,82,100,1.54,US,1670274822
336,dubbo,-32.25,148.6167,17.07,55,60,4.12,AU,1670274822
337,grindavik,63.8424,-22.4338,-1.74,100,20,2.06,IS,1670274823
338,cabo san lucas,22.8909,-109.9124,29.73,55,20,2.06,MX,1670274690
339,eureka,40.8021,-124.1637,12.36,82,28,0.89,US,1670274595
340,baoying,33.2292,119.3092,2.24,68,0,0.63,CN,1670274824
341,tukrah,32.5341,20.5791,17.72,61,5,1.64,LY,1670274824
342,ulaanbaatar,47.9077,106.8832,-30.93,69,0,1.0,MN,1670274672
343,jackson,42.4165,-122.8345,9.11,76,75,0.45,US,1670274538
344,nara,34.6851,135.8049,6.39,83,96,1.75,JP,1670274825
345,honiara,-9.4333,159.95,27.14,79,95,1.36,SB,1670274826
346,jaque,7.5175,-78.1703,25.54,84,99,2.91,PA,1670274826
347,tonj,7.2737,28.6822,27.77,33,20,1.81,SS,1670274826
348,slonim,53.0867,25.3219,-3.13,92,100,5.04,BY,1670274827
349,maneadero,31.7167,-116.5667,17.83,80,0,0.89,MX,1670274827
350,aleksandrov gay,50.147,48.5704,-9.77,79,18,4.0,RU,1670274828
351,hauterive,46.0901,3.4459,0.42,92,16,0.87,FR,1670274828
352,pochutla,15.7432,-96.4661,31.01,44,1,3.01,MX,1670274829
353,inta,66.0317,60.1659,-17.13,98,87,3.58,RU,1670274829
354,ilulissat,69.2167,-51.1,4.01,48,75,0.51,GL,1670274786
355,quang ngai,15.1167,108.8,23.7,91,100,5.15,VN,1670274830
356,mutsu,41.2894,141.2169,1.25,65,99,1.61,JP,1670274830
357,hofn,64.2539,-15.2082,2.52,63,28,3.35,IS,1670274831
358,togitsu,32.8333,129.85,7.64,62,8,5.13,JP,1670274831
359,salinas,36.6777,-121.6555,16.15,71,0,3.09,US,1670274721
360,kalmar,56.6616,16.3616,2.3,98,100,1.54,SE,1670274832
361,cidreira,-30.1811,-50.2056,22.49,88,97,4.3,BR,1670274534
362,marawi,7.9986,124.2928,19.46,93,88,0.81,PH,1670274832
363,gorontalo,0.5412,123.0595,23.49,93,100,0.85,ID,1670274833
364,manaure,11.7751,-72.4445,27.49,68,93,4.38,CO,1670274833
365,dharchula,29.85,80.5333,10.39,18,0,3.66,IN,1670274834
366,jiuquan,39.7432,98.5174,-7.17,72,100,2.0,CN,1670274834
367,westport,41.1415,-73.3579,8.44,52,0,3.09,US,1670274706
368,port elizabeth,-33.918,25.5701,16.29,91,3,2.24,ZA,1670274835
369,kjollefjord,70.9457,27.3465,4.03,93,100,6.69,NO,1670274835
370,tandalti,13.0167,31.8667,25.07,31,11,6.33,SD,1670274836
371,zaraza,9.3503,-65.3245,27.16,53,93,4.35,VE,1670274836
372,lavrentiya,65.5833,-171.0,-1.28,91,100,8.99,RU,1670274837
373,adrar,20.5022,-10.0711,25.17,21,5,2.29,MR,1670274837
374,garowe,8.4054,48.4845,22.24,67,78,5.44,SO,1670274838
375,bonfim,3.0833,-59.95,29.6,63,85,0.46,BR,1670274838
376,fortuna,40.5982,-124.1573,12.21,82,100,0.89,US,1670274839
377,dali,25.7,100.1833,5.83,70,0,1.72,CN,1670274839
378,yarada,17.65,83.2667,22.98,75,23,2.81,IN,1670274840
379,elizabeth city,36.2946,-76.2511,13.01,77,20,2.06,US,1670274650
380,naze,28.3667,129.4833,14.51,72,99,8.88,JP,1670274840
381,lagoa,39.05,-27.9833,16.23,68,100,4.88,PT,1670274841
382,talnakh,69.4865,88.3972,-3.77,96,100,6.01,RU,1670274626
383,belokurikha,51.9959,84.9896,-16.81,98,100,0.75,RU,1670274841
384,central point,42.376,-122.9164,9.25,76,75,0.45,US,1670274842
385,balkhash,46.844,74.9804,-16.95,85,3,3.52,KZ,1670274842
386,sandpoint,48.2766,-116.5533,-2.86,84,100,3.6,US,1670274842
387,necochea,-38.5473,-58.7368,34.29,25,6,7.18,AR,1670274843
388,nouadhibou,20.931,-17.0347,19.01,80,6,6.49,MR,1670274843
389,trofarello,44.9837,7.7452,8.27,85,32,0.45,IT,1670274844
390,tukums,56.9669,23.1553,-4.36,96,100,3.24,LV,1670274844
391,iquique,-20.2208,-70.1431,20.02,68,33,3.22,CL,1670274838
392,saint-francois,46.4154,3.9054,-0.74,93,17,0.51,FR,1670274557
393,chicama,-7.8447,-79.1469,21.3,61,7,4.39,PE,1670274845
394,mujiayingzi,42.1167,118.7833,-11.04,40,0,4.65,CN,1670274846
395,huarmey,-10.0681,-78.1522,21.37,75,17,3.86,PE,1670274846
396,vredendal,-31.6683,18.5012,16.01,73,100,6.02,ZA,1670274847
397,padang,-0.9492,100.3543,24.6,89,100,1.9,ID,1670274785
398,katherine,-14.4667,132.2667,26.18,69,98,2.57,AU,1670274847
399,galveston,29.3669,-94.9669,28.06,82,0,4.63,US,1670274848
400,coquimbo,-29.9533,-71.3436,18.85,72,40,4.12,CL,1670274796
401,richmond,37.5538,-77.4603,10.6,44,75,2.06,US,1670274341
402,abu samrah,35.3029,37.1841,12.22,71,2,1.45,SY,1670274849
403,sangar,63.9242,127.4739,-30.05,95,100,1.92,RU,1670274850
404,boone,39.0334,-92.3335,14.88,48,45,2.71,US,1670274829
405,belmonte,-15.8631,-38.8828,23.59,83,100,2.98,BR,1670274850
406,oktyabrskiy,54.4815,53.471,-21.07,100,95,0.73,RU,1670274851
407,inuvik,68.3499,-133.7218,-24.82,74,100,7.09,CA,1670274851
408,phan thiet,10.9333,108.1,23.71,88,93,2.39,VN,1670274852
409,casas grandes,30.3667,-107.95,21.36,47,33,9.87,MX,1670274852
410,roebourne,-20.7833,117.1333,27.7,40,12,4.84,AU,1670274853
411,tibati,6.4667,12.6333,23.42,24,88,1.8,CM,1670274853
412,le passage,44.2014,0.6028,8.75,93,0,1.54,FR,1670274853
413,wattegama,6.7989,81.4808,22.41,93,100,1.0,LK,1670274854
414,lahaina,20.8783,-156.6825,28.0,79,5,1.56,US,1670274854
415,batemans bay,-35.7167,150.1833,17.28,83,13,1.91,AU,1670274855
416,emerald,-23.5333,148.1667,22.97,72,0,2.94,AU,1670274855
417,ayan,56.45,138.1667,-12.4,61,100,4.83,RU,1670274856
418,sainte-marie,-20.8968,55.5496,25.09,66,100,7.2,RE,1670274856
419,biltine,14.5333,20.9167,22.43,20,1,5.92,TD,1670274857
420,long,18.0761,99.8326,21.74,96,100,0.36,TH,1670274857
421,caraballeda,10.6112,-66.8522,28.26,75,50,1.5,VE,1670274858
422,nizhniy ufaley,55.9153,59.9842,-19.61,100,89,0.95,RU,1670274858
423,cao bang,22.6667,106.25,11.27,83,71,0.8,VN,1670274718
424,jardim,-21.4803,-56.1381,28.83,66,53,2.66,BR,1670274695
425,kahului,20.8947,-156.47,28.01,65,20,5.36,US,1670274738
426,la ronge,55.1001,-105.2842,-23.88,64,100,3.09,CA,1670274690
427,praia da vitoria,38.7333,-27.0667,15.98,85,93,3.87,PT,1670274860
428,sendafa,9.15,39.0333,11.64,51,96,0.84,ET,1670274860
429,sao gabriel da cachoeira,-0.1303,-67.0892,27.6,74,100,0.99,BR,1670274861
430,lagunas,-5.2269,-75.6753,30.37,58,97,1.03,PE,1670274861
431,kungsbacka,57.4872,12.0761,1.53,79,52,3.58,SE,1670274862
432,ndele,8.4109,20.6473,26.06,28,38,2.98,CF,1670274862
433,saint-georges,12.0564,-61.7485,25.52,74,50,3.93,GD,1670274863
434,zapolyarnyy,69.4154,30.8136,-6.4,94,100,5.16,RU,1670274863
435,katsuura,35.1333,140.3,7.01,91,100,8.61,JP,1670274864
436,sao raimundo das mangabeiras,-7.0219,-45.4811,28.44,54,85,0.97,BR,1670274864
437,venice,27.0998,-82.4543,26.26,67,88,0.45,US,1670274864
438,uvat,59.1433,68.8953,-20.45,99,100,1.3,RU,1670274865
439,mata,40.683,-7.4592,8.85,98,100,2.55,PT,1670274865
440,mikkeli,61.6886,27.2723,-4.92,93,100,2.06,FI,1670274866
441,gillette,44.2911,-105.5022,-2.19,69,20,3.58,US,1670274714
442,severobaykalsk,55.65,109.3167,-13.54,81,100,3.71,RU,1670274867
443,tocopilla,-22.092,-70.1979,21.04,63,22,2.77,CL,1670274714
444,teya,60.3778,92.6267,-19.21,99,100,2.35,RU,1670274867
445,rocha,-34.4833,-54.3333,25.27,46,0,4.84,UY,1670274767
446,gusev,54.5922,22.1997,-1.05,92,100,3.9,RU,1670274868
447,raga,8.4596,25.678,24.6,32,5,2.03,SS,1670274869
448,little current,45.9793,-81.9248,3.56,79,100,0.89,CA,1670274869
449,daru,-9.0763,143.2092,26.94,76,99,4.54,PG,1670274869
450,saint-augustin,51.226,-58.6502,-5.7,84,7,1.96,CA,1670274870
451,acapulco,16.8634,-99.8901,29.9,70,0,3.6,MX,1670274678
452,oskemen,49.9565,82.6119,-15.89,98,100,0.57,KZ,1670274870
453,richards bay,-28.783,32.0377,20.99,80,100,6.53,ZA,1670274871
454,bequimao,-2.4489,-44.7825,26.53,77,18,2.47,BR,1670274871
455,khani,41.9563,42.9566,2.76,83,100,2.13,GE,1670274872
456,maragogi,-9.0122,-35.2225,24.93,85,39,5.09,BR,1670274873
457,nivala,63.9167,24.9667,-2.95,87,100,5.21,FI,1670274873
458,kodinar,20.7903,70.7031,21.67,34,0,4.52,IN,1670274873
459,beringovskiy,63.05,179.3167,0.13,98,100,14.84,RU,1670274874
460,rio verde de mato grosso,-18.9181,-54.8442,25.72,81,97,1.62,BR,1670274874
461,wasilla,61.5814,-149.4394,-0.39,92,100,0.0,US,1670274697
462,diego de almagro,-26.3667,-70.05,26.53,22,0,5.26,CL,1670274875
463,waipawa,-41.4122,175.5153,16.91,56,1,5.89,NZ,1670274639
464,wenzhou,27.9994,120.6668,7.2,87,7,2.23,CN,1670274876
465,manta,-0.95,-80.7333,24.88,78,20,5.14,EC,1670274773
466,bundaberg,-24.85,152.35,24.56,80,2,0.89,AU,1670274643
467,qaqortoq,60.7167,-46.0333,-2.29,71,66,5.33,GL,1670274876
468,paltinis,48.2167,26.65,-2.2,87,100,6.51,RO,1670274877
469,itaueira,-7.6033,-43.0256,27.1,59,100,2.88,BR,1670274877
470,sumenep,-7.0167,113.8667,26.4,78,100,0.82,ID,1670274878
471,cacequi,-29.8836,-54.825,32.12,35,0,5.22,BR,1670274878
472,meulaboh,4.1363,96.1285,23.26,93,100,1.83,ID,1670274879
473,korla,41.7597,86.1469,-5.19,39,44,2.13,CN,1670274879
474,haines junction,60.7522,-137.5108,-9.41,95,96,0.65,CA,1670274879
475,praia,14.9215,-23.5087,23.3,64,75,4.63,CV,1670274880
476,abu kamal,34.4506,40.9171,14.65,59,5,1.67,SY,1670274880
477,dicabisagan,17.0818,122.4157,24.22,92,100,3.31,PH,1670274881
478,andra,62.5147,65.8878,-18.33,100,98,1.98,RU,1670274881
479,sarangani,5.4033,125.4636,27.9,77,99,8.56,PH,1670274882
480,abha,18.2164,42.5053,12.14,71,0,4.63,SA,1670274882
481,mulege,26.8833,-111.9833,22.71,67,100,2.37,MX,1670274882
482,ostersund,63.1792,14.6357,0.25,100,20,7.72,SE,1670274883
483,tura,25.5198,90.2201,15.54,85,0,1.47,IN,1670274883
484,zhanaozen,43.3,52.8,-7.99,50,0,0.2,KZ,1670274884
485,shikarpur,27.9571,68.6379,12.94,27,0,1.29,PK,1670274884
486,isoka,-10.1606,32.6335,20.38,58,97,1.42,ZM,1670274885
487,nantucket,41.2835,-70.0995,8.08,73,0,3.6,US,1670274798
488,mayo,38.8876,-76.5119,10.09,53,0,4.12,US,1670274885
489,tokur,53.1333,132.9,-23.55,99,100,1.68,RU,1670274886
490,yumen,40.2833,97.2,-9.17,87,100,2.12,CN,1670274886
491,gidam,18.9833,81.4,14.4,68,40,1.39,IN,1670274886
492,horsham,51.064,-0.3272,7.15,87,40,3.09,GB,1670274887
493,mount isa,-20.7333,139.5,21.87,53,0,0.0,AU,1670274887
494,leh,34.1667,77.5833,-8.62,49,49,0.84,IN,1670274888
495,bosaso,11.2842,49.1816,23.74,71,20,1.5,SO,1670274888
496,phalombe,-15.8064,35.6507,22.78,72,66,0.57,MW,1670274889
497,muros,42.7762,-9.0603,12.05,89,100,1.69,ES,1670274620
498,te horo,-40.8084,175.1233,14.82,80,94,7.27,NZ,1670274889
499,ladario,-19.0047,-57.6017,32.16,55,40,5.66,BR,1670274890
500,rusera,25.75,86.0333,14.81,49,0,3.29,IN,1670274890
501,bonthe,7.5264,-12.505,26.11,83,96,1.51,SL,1670274890
502,ca mau,9.1769,105.15,24.09,95,99,2.54,VN,1670274891
503,leiyang,26.4024,112.8591,4.69,89,100,1.47,CN,1670274891
504,callaguip,18.0714,120.4867,25.57,80,42,6.08,PH,1670274892
505,requena,39.4883,-1.1004,9.33,94,100,1.49,ES,1670274892
506,thakurgaon,26.0333,88.4667,17.32,60,0,2.23,BD,1670274893
507,namibe,-15.1961,12.1522,21.44,78,16,2.25,AO,1670274893
508,tauberbischofsheim,49.6247,9.6628,3.84,87,100,2.42,DE,1670274894
509,hare bay,48.8499,-54.0148,0.66,93,94,2.45,CA,1670274894
510,pervomaysk,48.0443,30.8507,-3.96,69,41,4.0,UA,1670274894
511,tamale,9.4008,-0.8393,31.55,21,79,1.83,GH,1670274895
512,narsaq,60.9167,-46.05,6.12,71,73,4.87,GL,1670274895
513,dagana,16.5165,-15.5068,25.79,35,31,1.98,MR,1670274896
514,valverde del camino,37.5751,-6.7543,12.24,95,100,5.05,ES,1670274896
515,sakakah,29.9697,40.2064,13.84,64,18,3.6,SA,1670274897
516,kalmunai,7.4167,81.8167,24.19,89,98,3.67,LK,1670274897
517,evensk,61.95,159.2333,-14.31,92,100,3.11,RU,1670274897
518,fare,-16.7,-151.0167,26.33,77,5,8.26,PF,1670274898
519,villa carlos paz,-31.4241,-64.4978,36.88,14,0,8.05,AR,1670274899
520,partizanskoye,55.5006,94.39,-15.18,65,100,6.45,RU,1670274899
521,bengkulu,-3.8004,102.2655,23.32,91,100,1.28,ID,1670274900
522,kundiawa,-6.0167,144.9667,17.47,98,100,0.37,PG,1670274900
523,marsaxlokk,35.8419,14.5431,15.6,94,20,1.54,MT,1670274901
524,alyangula,-13.8483,136.4192,28.23,64,98,2.51,AU,1670274901
525,edgewater,28.9889,-80.9023,24.53,64,40,3.6,US,1670274902
526,kashi,39.4547,75.9797,-5.48,40,12,0.35,CN,1670274902
527,araouane,18.9048,-3.5265,27.64,16,100,2.45,ML,1670274903
528,swift current,50.2834,-107.8014,-13.8,83,100,0.4,CA,1670274873
529,staraya poltavka,50.4772,46.4814,-9.16,70,0,3.44,RU,1670274904
530,lorengau,-2.0226,147.2712,26.2,81,100,1.55,PG,1670274904
531,ambalavao,-21.8333,46.9333,17.98,95,96,1.58,MG,1670274905
532,henties bay,-22.116,14.2845,14.65,88,0,4.51,NA,1670274905
533,channel-port aux basques,47.5702,-59.1367,0.88,61,12,1.92,CA,1670274753
534,sri aman,1.2376,111.4621,22.51,98,93,0.47,MY,1670274906
535,honningsvag,70.9821,25.9704,3.86,81,100,4.63,NO,1670274906
536,edd,13.9297,41.6925,26.76,55,0,7.35,ER,1670274907
537,grand-santi,4.25,-54.3833,26.11,72,99,0.59,GF,1670274907
538,pokrovskoye,47.4157,38.8971,-4.92,43,0,7.12,RU,1670274907
539,mallur,11.55,78.1333,21.0,93,56,1.63,IN,1670274908
540,svetlogorsk,52.6333,29.7333,-10.26,88,77,4.1,BY,1670274909
541,hamilton,39.1834,-84.5333,9.13,56,100,3.6,US,1670274909
542,lubao,14.9167,120.55,24.16,86,96,2.13,PH,1670274688
543,hirado,33.3597,129.5531,5.77,55,4,9.6,JP,1670274910
544,valente,-11.4122,-39.4619,23.2,74,100,4.56,BR,1670274910
545,nanortalik,60.1432,-45.2371,0.99,76,95,7.17,GL,1670274858
546,ixhuatan,16.3569,-94.4825,32.65,43,0,1.59,MX,1670274911
547,langreo,43.2957,-5.6842,10.51,85,94,2.17,ES,1670274912
548,alice,27.7523,-98.0697,28.94,52,20,6.69,US,1670274912
549,bubaque,11.2833,-15.8333,27.0,70,70,3.93,GW,1670274913
550,charters towers,-20.1,146.2667,24.02,61,0,4.87,AU,1670274913
551,dawei,14.0833,98.2,24.1,83,18,3.07,MM,1670274914
552,saint anthony,45.0205,-93.218,-1.03,61,100,5.14,US,1670274914
553,santana do mundau,-9.1681,-36.2222,21.91,95,76,2.74,BR,1670274915
554,ust-tsilma,65.441,52.1498,-15.26,89,53,3.0,RU,1670274915
555,ondangwa,-17.9167,15.95,30.21,20,16,6.24,NA,1670274915
556,tigil,57.8,158.6667,-11.14,86,100,6.55,RU,1670274916
557,touros,-5.1989,-35.4608,26.45,73,23,5.69,BR,1670274916
558,tiznit,29.5833,-9.5,14.72,85,51,1.08,MA,1670274917
559,vila velha,-20.3297,-40.2925,24.97,84,20,5.66,BR,1670274917
560,mehamn,71.0357,27.8492,1.97,93,100,6.69,NO,1670274918
561,north branch,45.5113,-92.9802,-1.01,63,100,5.81,US,1670274428
562,cairns,-16.9167,145.7667,22.81,88,5,0.0,AU,1670274919
563,yashkul,46.1711,45.3435,-6.84,47,0,3.24,RU,1670274919
564,handlova,48.7276,18.7601,7.93,95,100,1.87,SK,1670274920
565,iglesias,39.3114,8.535,12.1,70,100,1.9,IT,1670274920
566,anloga,5.7947,0.8973,27.56,82,42,5.07,GH,1670274921
567,koshki,54.2091,50.4677,-18.98,99,68,1.16,RU,1670274921
